City_ID,City,Lat,Lng,Max Temp,Humidity,Cloudiness,Wind Speed,Country,Date
0,kulhudhuffushi,6.6221,73.07,28.5,73,73,5.82,MV,1722730706
1,ushuaia,-54.8,-68.3,-1.19,64,100,4.63,AR,1722731214
2,vadso,70.0744,29.7487,10.49,87,100,4.12,NO,1722731215
3,lautoka,-17.6167,177.4667,26.92,69,75,5.66,FJ,1722731216
4,fale old settlement,-9.3852,-171.2468,27.7,79,63,5.95,TK,1722731217
5,albany,42.6001,-73.9662,24.77,72,81,1.52,US,1722731218
6,geraldton,-28.7667,114.6,9.23,81,0,5.66,AU,1722731219
7,ancud,-41.8697,-73.8203,8.32,91,100,5.11,CL,1722730684
8,nemuro,43.3236,145.575,18.34,93,73,4.64,JP,1722731222
9,bilibino,68.0546,166.4372,8.56,65,100,0.99,RU,1722731223
10,merizo village,13.2658,144.6691,28.88,88,100,8.49,GU,1722731224
11,waitangi,-43.9535,-176.5597,8.79,87,76,3.13,NZ,1722731225
12,carnarvon,-24.8667,113.6333,16.42,62,0,4.87,AU,1722731226
13,riviere-du-loup,47.8304,-69.5342,20.15,94,91,3.09,CA,1722731007
14,lihue,21.9789,-159.3672,27.77,75,40,4.63,US,1722730726
15,puerto san jose,13.9256,-90.8244,30.03,82,40,2.06,GT,1722730980
16,olonkinbyen,70.9221,-8.7187,5.24,95,94,3.8,SJ,1722731230
17,strzelin,50.7816,17.0648,16.33,79,27,1.62,PL,1722731231
18,kiunga,-6.1219,141.2906,22.59,95,100,1.74,PG,1722730637
19,champerico,14.3,-91.9167,25.3,80,86,4.14,GT,1722731234
20,murun-kuren,49.6342,100.1625,17.09,62,3,1.03,MN,1722731235
21,port-aux-francais,-49.35,70.2167,2.46,86,35,8.58,TF,1722731236
22,galle,6.0367,80.217,28.29,83,44,0.45,LK,1722731237
23,salisbury,51.0693,-1.7957,13.87,86,90,3.6,GB,1722731219
24,stanley,54.868,-1.6985,11.51,90,0,1.54,GB,1722731034
25,utrik,11.2278,169.8474,28.39,76,4,3.85,MH,1722731240
26,margaret river,-33.95,115.0667,9.76,92,3,3.55,AU,1722731055
27,hermanus,-34.4187,19.2345,11.98,81,81,10.09,ZA,1722731242
28,constantia,44.1833,28.65,21.5,61,61,6.5,RO,1722730744
29,edinburgh of the seven seas,-37.0676,-12.3116,12.33,80,97,15.13,SH,1722731244
30,ahar,38.4774,47.0699,17.86,67,0,2.13,IR,1722731246
31,west island,-12.1568,96.8225,25.99,78,12,4.12,CC,1722731247
32,hawaiian paradise park,19.5933,-154.9731,26.52,84,100,1.54,US,1722731248
33,solnechnyy,50.7214,136.6319,20.01,53,37,2.1,RU,1722731249
34,ponte vedra beach,30.2397,-81.3856,29.46,78,0,3.6,US,1722731250
35,grytviken,-54.2811,-36.5092,-5.13,91,100,3.75,GS,1722731251
36,papatowai,-46.5619,169.4708,9.61,57,76,3.01,NZ,1722731252
37,petropavlovsk-kamchatsky,53.0452,158.6483,20.33,40,0,2.0,RU,1722730675
38,afaahiti,-17.75,-149.2833,25.93,73,80,5.6,PF,1722731254
39,katsuura,35.1333,140.3,26.79,77,12,1.82,JP,1722731255
40,santo antonio do ica,-3.1022,-67.9397,24.78,86,34,0.3,BR,1722731256
41,pyshma,56.9523,63.2513,12.5,90,43,1.14,RU,1722731257
42,puerto baquerizo moreno,-0.9,-89.6,19.3,78,76,4.63,EC,1722730826
43,miles city,46.4083,-105.8406,35.54,14,0,4.63,US,1722731260
44,adamstown,-25.066,-130.1015,21.02,74,43,6.73,PN,1722731261
45,jamestown,42.097,-79.2353,23.8,80,0,1.54,US,1722730934
46,gorgoram,12.6398,10.7039,25.27,70,84,5.82,NG,1722731263
47,taulaga,-11.0553,-171.0883,27.51,71,96,5.46,AS,1722731190
48,lhuentse,27.6679,91.1839,18.64,93,92,0.54,BT,1722731265
49,bor,56.3567,44.0669,13.96,88,2,2.66,RU,1722731266
50,nar'yan-mar,67.6713,53.087,8.19,85,85,7.44,RU,1722730741
51,blackmans bay,-43.0167,147.3167,10.07,87,37,0.45,AU,1722731268
52,borovskoy,53.8,64.15,13.69,92,69,3.21,KZ,1722731269
53,viedma,-40.8135,-62.9967,12.13,33,61,5.79,AR,1722731270
54,nieuw amsterdam,5.8833,-55.0833,26.01,89,40,3.09,SR,1722731271
55,bredasdorp,-34.5322,20.0403,7.67,92,89,3.47,ZA,1722731273
56,pacific grove,36.6177,-121.9166,26.79,86,0,3.6,US,1722731274
57,maracacume,-2.0428,-45.9592,22.46,76,5,1.68,BR,1722731275
58,st. john's,47.5649,-52.7093,19.66,80,40,8.75,CA,1722731276
59,akureyri,65.6835,-18.0878,11.96,76,40,0.51,IS,1722731277
60,tiszafoldvar,46.9833,20.25,17.01,82,0,2.57,HU,1722731278
61,ilulissat,69.2167,-51.1,11.01,50,28,0.0,GL,1722731051
62,kerikeri,-35.2268,173.9474,14.39,81,100,4.02,NZ,1722730731
63,sulak,43.2734,47.5146,25.03,73,45,4.92,RU,1722731281
64,whitehorse,60.7161,-135.0538,18.43,46,75,3.6,CA,1722731064
65,tsiombe,-25.3,45.4833,16.3,91,0,1.02,MG,1722731083
66,minas de marcona,-15.2119,-75.1103,10.98,87,20,6.76,PE,1722731284
67,queenstown,-31.8976,26.8753,13.46,29,64,3.65,ZA,1722730709
68,port elizabeth,-33.918,25.5701,20.16,21,0,2.57,ZA,1722731222
69,oktyabr'skoye,43.0645,44.7417,15.08,94,8,2.0,RU,1722731289
70,iskateley,67.6803,53.1512,8.21,84,83,7.43,RU,1722731203
71,nizhniy odes,63.6445,54.856,15.06,98,72,3.12,RU,1722731291
72,howrah,22.5892,88.3103,28.0,94,75,0.0,IN,1722731058
73,kidal,18.4411,1.4078,29.44,49,54,6.7,ML,1722731142
74,port lincoln,-34.7333,135.8667,12.08,71,100,4.18,AU,1722730764
75,remire-montjoly,4.9167,-52.2667,25.02,94,0,1.03,GF,1722730782
76,vorgashor,67.5833,63.95,10.69,72,94,7.04,RU,1722731107
77,messaad,34.1543,3.5031,26.76,32,0,3.56,DZ,1722731297
78,lammi,61.0833,25.0167,13.38,96,84,1.5,FI,1722731299
79,auki,-8.7676,160.7034,27.57,84,74,2.34,SB,1722731300
80,wynyard,-41.0,145.7167,11.59,76,39,4.37,AU,1722731301
81,conakry,9.538,-13.6773,25.04,94,100,2.06,GN,1722731302
82,dudinka,69.4058,86.1778,12.27,65,50,6.12,RU,1722730926
83,praia da vitoria,38.7333,-27.0667,23.2,83,0,1.62,PT,1722730895
84,bethel,41.3712,-73.414,23.84,94,0,1.54,US,1722731305
85,strezhevoy,60.7333,77.5889,17.45,96,100,1.92,RU,1722731306
86,tiksi,71.6872,128.8694,7.51,74,100,0.99,RU,1722730751
87,ribeira grande,38.5167,-28.7,22.1,88,2,1.34,PT,1722731308
88,puerto natales,-51.7236,-72.4875,1.6,99,100,1.26,CL,1722731309
89,iqaluit,63.7506,-68.5145,4.85,80,40,8.75,CA,1722731310
90,longyearbyen,78.2186,15.6401,9.91,100,75,3.6,SJ,1722730721
91,rifle,39.5347,-107.7831,36.33,100,0,1.54,US,1722731313
92,punta arenas,-53.15,-70.9167,2.06,75,100,5.14,CL,1722731314
93,ulladulla,-35.35,150.4667,13.8,60,98,2.09,AU,1722731315
94,mount pearl,47.5166,-52.7813,19.19,80,40,8.75,CA,1722730807
95,keflavik,64.0049,-22.5624,11.95,87,75,5.14,IS,1722730808
96,sinabang,2.4803,96.3801,24.86,91,100,4.19,ID,1722731318
97,dingli,35.8614,14.3822,26.09,83,0,2.57,MT,1722731319
98,yellowknife,62.456,-114.3525,21.34,48,75,3.09,CA,1722731320
99,avarua,-21.2078,-159.775,24.03,53,100,3.6,CK,1722731015
100,vallenar,-28.5708,-70.7581,14.22,58,100,1.2,CL,1722731323
101,tokar,18.4254,37.729,33.49,44,89,2.6,SD,1722731324
102,tura,25.5198,90.2201,23.41,97,91,1.97,IN,1722731326
103,flying fish cove,-10.4217,105.6791,25.82,83,100,5.66,CX,1722731327
104,tazacorte,28.629,-17.9293,22.54,83,11,6.69,ES,1722731093
105,hoa binh,20.8133,105.3383,24.34,97,74,0.68,VN,1722731330
106,ta`u,-14.2336,-169.5144,26.63,63,73,3.53,AS,1722731331
107,hasaki,35.7333,140.8333,31.27,72,57,1.59,JP,1722730742
108,invercargill,-46.4,168.35,8.9,74,71,1.79,NZ,1722730759
109,hammerfest,70.6634,23.6821,15.25,72,21,1.54,NO,1722731334
110,mbandaka,0.0487,18.2603,22.46,77,83,1.88,CD,1722731335
111,oranjemund,-28.55,16.4333,14.43,77,77,6.98,NA,1722731336
112,vila velha,-20.3297,-40.2925,21.08,97,100,0.89,BR,1722730752
113,kudahuvadhoo,2.6708,72.8944,27.91,71,62,1.03,MV,1722731340
114,coquimbo,-29.9533,-71.3436,12.21,76,0,1.03,CL,1722731341
115,slawno,54.3628,16.6789,14.45,94,75,2.25,PL,1722731342
116,haiku-pauwela,20.9219,-156.3051,27.92,75,40,11.32,US,1722731343
117,port alfred,-33.5906,26.891,19.14,33,82,4.39,ZA,1722731344
118,molchanovo,57.5817,83.7692,16.89,84,9,2.26,RU,1722731345
119,georgetown,5.4112,100.3354,26.96,74,20,1.03,MY,1722731083
120,santiago de cao,-7.9589,-79.2392,17.07,88,64,3.09,PE,1722731347
121,ascension,30.2169,-90.9001,28.48,78,0,0.0,US,1722731348
122,konarka,19.9,86.1167,28.22,83,100,4.02,IN,1722731159
123,kingston,17.997,-76.7936,30.53,74,20,5.66,JM,1722730572
124,hithadhoo,-0.6,73.0833,27.37,78,88,2.25,MV,1722731352
125,shubarshi,48.5872,57.1869,20.37,48,9,3.7,KZ,1722731353
126,cannonvale,-20.2833,148.7,21.99,73,61,6.46,AU,1722731354
127,puerto ayora,-0.7393,-90.3518,19.75,90,93,1.34,EC,1722731355
128,boa vista,2.8197,-60.6733,27.99,74,20,1.03,BR,1722731356
129,crotone,39.0851,17.1178,30.11,73,88,7.15,IT,1722731358
130,martapura,-3.4167,114.85,26.05,89,0,1.03,ID,1722731359
131,qaqortoq,60.7167,-46.0333,7.52,78,47,1.4,GL,1722731360
132,fort mcmurray,56.7268,-111.381,17.73,72,100,1.03,CA,1722731362
133,bakchar,57.0186,82.0711,17.61,97,75,2.2,RU,1722731363
134,dalandzadgad,43.5708,104.425,20.33,42,74,1.3,MN,1722731364
135,morehead city,34.7229,-76.726,29.0,88,20,5.66,US,1722731334
136,vilyuchinsk,52.9306,158.4028,21.15,66,97,0.81,RU,1722731367
137,cajati,-24.7361,-48.1228,18.88,85,0,0.92,BR,1722731368
138,lashio,22.9333,97.75,20.67,100,100,0.53,MM,1722731369
139,mathba,22.2855,89.9629,26.32,91,99,2.04,BD,1722731370
140,suva,-18.1416,178.4415,25.71,83,75,2.57,FJ,1722731371
141,crane,31.3974,-102.3501,31.37,36,67,8.23,US,1722730790
142,bikenibeu village,1.3673,173.1241,28.52,69,38,5.71,KI,1722731373
143,kavaratti,10.5669,72.642,27.71,79,100,5.87,IN,1722731355
144,jishui,33.7333,115.4,29.78,76,5,4.1,CN,1722731376
145,tornio,65.8481,24.1466,12.01,85,62,3.18,FI,1722731081
146,kanniyakumari,8.0833,77.5667,26.03,80,20,7.03,IN,1722731378
147,thompson,55.7435,-97.8558,19.09,42,75,2.06,CA,1722731379
148,talnakh,69.4865,88.3972,14.49,63,71,3.15,RU,1722731380
149,porto novo,6.4965,2.6036,23.61,91,86,2.96,BJ,1722731381
150,palmer,42.1584,-72.3287,25.14,78,75,2.02,US,1722731139
151,esil,51.9556,66.4042,19.65,52,95,5.68,KZ,1722731383
152,aasiaat,68.7098,-52.8699,4.81,81,5,2.97,GL,1722731385
153,atafu village,-8.5421,-172.5159,28.06,77,45,6.32,TK,1722730951
154,bahia de caraquez,-0.6,-80.4167,23.1,86,99,3.77,EC,1722731387
155,lebu,-37.6167,-73.65,9.19,93,98,3.67,CL,1722731186
156,kone,-21.0595,164.8658,22.26,43,0,5.04,NC,1722731167
157,boyolangu,-8.1181,111.8935,23.52,91,61,0.61,ID,1722731392
158,kodiak,57.79,-152.4072,13.73,77,100,6.69,US,1722731388
159,margate,51.3813,1.3862,16.5,83,100,3.6,GB,1722731266
160,vila franca do campo,37.7167,-25.4333,22.23,84,54,0.98,PT,1722731395
161,weno,7.4515,151.8468,29.97,84,100,2.57,FM,1722730837
162,college,64.8569,-147.8028,13.97,84,100,0.0,US,1722731397
163,smirnovo,54.5125,69.4222,17.75,67,73,2.76,KZ,1722731398
164,port augusta,-32.5,137.7667,13.16,69,100,3.29,AU,1722731219
165,pitkyaranta,61.5734,31.4792,13.1,96,30,3.15,RU,1722731401
166,udachny,66.4167,112.4,20.42,44,57,3.69,RU,1722731403
167,okhotsk,59.3833,143.3,16.12,67,43,0.99,RU,1722731018
168,iyidere,41.0119,40.3619,23.98,80,0,1.86,TR,1722731405
169,galliano,29.4422,-90.2992,30.0,74,0,0.0,US,1722731406
170,kayyerkan,69.3786,87.7439,10.93,73,1,5.53,RU,1722731407
171,kogalym,62.2654,74.4791,19.1,82,100,2.46,RU,1722731408
172,warmbad,-28.45,18.7333,11.94,57,13,5.32,NA,1722731410
173,senanga,-16.1167,23.2667,13.89,20,0,2.73,ZM,1722731411
174,cidreira,-30.1811,-50.2056,18.47,82,10,1.94,BR,1722731406
175,abilene,32.4487,-99.7331,37.19,36,75,5.14,US,1722731268
176,louga,58.7372,29.8453,12.53,97,47,1.41,RU,1722731414
177,port mathurin,-19.6833,63.4167,21.7,72,97,4.29,MU,1722731415
178,chernyshevskiy,63.0128,112.4714,18.53,42,0,2.18,RU,1722731416
179,lensk,60.7253,114.9278,19.9,48,99,5.47,RU,1722731417
180,klaksvik,62.2266,-6.589,11.51,94,8,5.75,FO,1722731418
181,ephrata,40.1798,-76.1788,23.32,83,40,2.06,US,1722731419
182,aldan,58.6031,125.3894,18.26,62,100,1.35,RU,1722731420
183,ayr,55.4627,-4.6339,13.61,88,40,2.57,GB,1722731422
184,quibala,-10.7337,14.98,17.89,70,0,0.61,AO,1722731423
185,saldanha,-33.0117,17.9442,13.03,85,100,8.61,ZA,1722731424
186,sitka,57.0531,-135.33,17.94,63,40,6.17,US,1722731209
187,shuangjiang,26.1547,109.7138,26.75,73,5,2.94,CN,1722731426
188,road town,18.4167,-64.6167,28.05,78,40,3.6,VG,1722731427
189,port saint john's,-31.6229,29.5448,18.66,30,66,3.85,ZA,1722731428
190,colonel hill,22.7667,-74.2167,28.65,82,100,7.56,BS,1722731429
191,ventspils,57.3894,21.5606,10.96,100,98,0.0,LV,1722731430
192,pilar,-9.5972,-35.9567,20.96,96,69,1.36,BR,1722731431
193,saint-joseph,-21.3667,55.6167,18.21,74,0,1.64,RE,1722731432
194,la passe,45.5549,-0.8967,17.13,86,8,2.62,FR,1722731433
195,kutum,14.2,24.6667,23.29,75,100,5.15,SD,1722731435
196,bonthe,7.5264,-12.505,24.67,88,100,4.64,SL,1722731436
197,isangel,-19.55,169.2667,22.63,56,7,5.71,VU,1722731437
198,kapuskasing,49.4169,-82.4331,23.05,53,20,3.6,CA,1722731401
199,charters towers,-20.1,146.2667,22.06,43,28,8.39,AU,1722731439
200,mahina,-17.5065,-149.489,26.87,65,100,7.72,PF,1722731440
201,mugia,43.1041,-9.2179,18.28,89,1,3.87,ES,1722731441
202,cape canaveral,28.4058,-80.6048,28.93,87,0,5.66,US,1722731345
203,tarko-sale,64.9225,77.785,18.77,87,100,4.24,RU,1722731444
204,kachug,53.9606,105.8817,21.09,58,17,1.03,RU,1722731445
205,blagoveshchensk,50.2667,127.5333,21.34,94,75,5.0,RU,1722731446
206,ibirama,-27.0569,-49.5178,18.75,99,11,0.77,BR,1722731447
207,belluru,12.9911,76.7444,20.95,87,100,4.19,IN,1722731448
208,yamada,39.4667,141.95,28.84,68,6,2.18,JP,1722731449
209,mont-tremblant,46.1949,-74.6264,22.77,83,72,0.0,CA,1722731450
210,lorengau,-2.0226,147.2712,27.7,83,75,5.05,PG,1722730988
211,waingapu,-9.6567,120.2641,26.4,62,100,3.54,ID,1722731413
212,faya-largeau,17.9257,19.1043,33.79,43,75,4.85,TD,1722730869
213,sainte-rose,16.3324,-61.6979,27.02,89,40,2.06,GP,1722731454
214,emerald,-23.5333,148.1667,19.63,51,0,7.16,AU,1722731455
215,san patricio,28.017,-97.5169,33.08,63,0,6.25,US,1722731457
216,i-n-salah,27.1935,2.4607,34.41,10,0,3.6,DZ,1722731458
217,spirovo,57.419,34.9766,12.08,98,49,1.6,RU,1722731459
218,wailua homesteads,22.0669,-159.378,27.44,73,40,4.63,US,1722730860
219,undurkhaan,47.3194,110.6556,17.39,69,14,3.61,MN,1722730927
220,fuqing,25.725,119.3794,29.87,67,0,0.66,CN,1722731462
221,mount isa,-20.7333,139.5,21.87,46,1,8.23,AU,1722730815
222,peace river,56.2501,-117.286,24.17,49,0,3.6,CA,1722730936
223,kruisfontein,-34.0033,24.7314,15.61,21,100,4.8,ZA,1722731466
224,cabo san lucas,22.8909,-109.9124,35.61,48,20,8.75,MX,1722730951
225,poronaysk,49.2167,143.1167,13.79,77,100,2.55,RU,1722731469
226,nantucket,41.2835,-70.0995,25.56,98,23,8.4,US,1722730951
227,la sarre,48.8002,-79.1996,19.79,65,4,2.95,CA,1722731381
228,kamaishi,39.2667,141.8833,28.7,70,3,2.79,JP,1722731472
229,tanjung pinang,0.9167,104.45,27.02,74,99,6.21,ID,1722731473
230,anadyr,64.75,177.4833,9.28,87,100,8.94,RU,1722731474
231,badger,64.8,-147.5333,13.93,83,100,0.0,US,1722730984
232,al ghayzah,16.2079,52.176,26.04,81,91,2.94,YE,1722731476
233,belmonte,-15.8631,-38.8828,21.96,87,16,3.52,BR,1722731477
234,constitucion,-35.3333,-72.4167,10.17,78,88,1.64,CL,1722731374
235,cosquin,-31.2451,-64.4656,13.13,40,90,1.2,AR,1722731417
236,mata-utu,-13.2816,-176.1745,26.86,77,5,4.48,WF,1722731481
237,khorixas,-20.3667,14.9667,12.89,56,0,0.19,NA,1722731482
238,bathsheba,13.2167,-59.5167,29.34,79,40,8.23,BB,1722730915
239,gadzhiyevo,69.2551,33.3362,9.11,94,26,3.09,RU,1722731077
240,buharkent,37.964,28.7427,26.1,24,0,1.83,TR,1722731485
241,micheweni,-4.9667,39.8333,23.48,81,6,4.71,TZ,1722731486
242,halifax,44.6453,-63.5724,21.94,95,100,0.89,CA,1722730732
243,pao de acucar,-9.7483,-37.4367,18.77,93,0,1.1,BR,1722731488
244,ust-nera,64.5667,143.2,15.76,45,65,3.04,RU,1722731489
245,susuman,62.7833,148.1667,14.69,39,11,1.6,RU,1722731490
246,taoudenni,22.6783,-3.9836,35.48,32,89,6.11,ML,1722731453
247,al kharijah,25.4514,30.5464,31.11,21,5,4.06,EG,1722731492
248,isafjordur,66.0755,-23.124,7.48,95,100,5.58,IS,1722731415
249,luderitz,-26.6481,15.1594,13.13,93,68,4.28,NA,1722731031
250,hamilton,39.1834,-84.5333,28.47,71,20,4.63,US,1722730998
251,al minya,28.1099,30.7503,28.0,43,0,3.03,EG,1722731497
252,an nuhud,12.7,28.4333,26.83,62,96,3.04,SD,1722731498
253,daru,-9.0763,143.2092,24.53,83,100,7.47,PG,1722731499
254,east london,-33.0153,27.9116,19.51,29,86,5.03,ZA,1722731500
255,leava,-14.3,-178.1667,26.99,72,5,3.07,WF,1722731501
256,stara vyzhivka,51.4376,24.44,12.92,87,0,1.86,UA,1722731502
257,nabire,-3.3667,135.4833,29.11,70,77,1.45,ID,1722731503
258,klyuchi,52.2667,79.1667,20.95,71,0,4.2,RU,1722731504
259,tazovsky,67.4667,78.7,13.18,77,100,5.23,RU,1722731505
260,puerto deseado,-47.7503,-65.8938,3.54,88,100,5.64,AR,1722731506
261,maceio,-9.6658,-35.7353,21.69,100,100,3.09,BR,1722731445
262,nogliki,51.8333,143.1667,16.96,51,100,2.99,RU,1722731396
263,hargeysa,9.56,44.065,20.28,64,99,12.25,SO,1722731510
264,xilin hot,43.9667,116.0333,21.56,70,91,4.21,CN,1722731512
265,finote selam,10.7,37.2667,14.86,99,100,0.52,ET,1722731513
266,yarmouth,41.7057,-70.2286,26.47,89,20,7.72,US,1722731086
267,san fernando de apure,7.8878,-67.4724,24.5,91,84,0.97,VE,1722731517
268,westport,41.1415,-73.3579,24.06,86,0,3.13,US,1722731518
269,jiazi,22.8779,116.067,29.96,76,6,3.14,CN,1722731519
270,furstenwalde,52.3667,14.0667,20.19,78,91,2.76,DE,1722731521
271,anori,-3.7728,-61.6442,27.94,61,97,0.2,BR,1722731522
272,grand falls-windsor,48.9332,-55.6649,22.5,65,87,5.34,CA,1722731315
273,olyokminsk,60.3736,120.4264,18.37,58,99,3.48,RU,1722731080
274,ishigaki,24.3448,124.1572,31.07,74,40,1.54,JP,1722731375
275,howard springs,-12.497,131.047,25.95,89,99,4.14,AU,1722730927
276,guerrero negro,27.9769,-114.0611,23.02,69,7,7.6,MX,1722731502
277,kokuy,52.2037,117.5529,17.92,96,100,1.55,RU,1722731529
278,cartagena del chaira,1.3349,-74.8429,25.86,74,100,0.5,CO,1722731530
279,coal city,41.2878,-88.2856,29.62,76,0,2.57,US,1722731531
280,mountain home,43.133,-115.6912,40.57,16,0,3.6,US,1722731532
281,new norfolk,-42.7826,147.0587,10.72,71,70,3.69,AU,1722731239
282,soio,-6.1349,12.3689,19.69,90,0,2.21,AO,1722730943
283,nizhniy kuranakh,58.8353,125.4869,17.92,71,100,1.72,RU,1722731536
284,carutapera,-1.195,-46.02,25.27,75,1,2.94,BR,1722731465
285,muroto-misakicho,33.2833,134.15,29.21,78,1,1.62,JP,1722731538
286,kilju,40.9642,129.3278,24.07,90,99,1.18,KP,1722731540
287,mae ramat,16.984,98.5166,26.0,99,100,0.58,TH,1722731102
288,srisailain,16.0833,78.8667,22.81,87,100,4.48,IN,1722731542
289,portland,45.5234,-122.6762,30.64,34,75,4.63,US,1722731447
290,mar del plata,-38.0023,-57.5575,13.82,55,0,3.09,AR,1722731074
291,shevchenkove,49.6959,37.1735,19.76,40,100,1.45,UA,1722731545
292,pyt-yakh,60.7499,72.8582,16.29,89,95,1.73,RU,1722730973
293,talcahuano,-36.7167,-73.1167,9.82,100,20,2.06,CL,1722731389
294,bunda,-2.05,33.8667,20.37,58,93,2.18,TZ,1722731548
295,nova vicosa,-17.8919,-39.3719,22.43,87,1,4.57,BR,1722731549
296,limassol,34.675,33.0333,26.77,88,0,4.12,CY,1722731550
297,malvan,16.0667,73.4667,26.98,86,100,8.16,IN,1722731552
298,uturoa,-16.7333,-151.4333,24.64,70,88,6.9,PF,1722731553
299,bandarbeyla,9.4942,50.8122,25.87,68,44,12.62,SO,1722731554
300,forecariah,9.4306,-13.0881,23.47,98,100,1.0,GN,1722731555
301,batesville,35.7698,-91.641,31.23,61,0,0.0,US,1722731420
302,alofi,-19.0595,-169.9187,26.94,69,40,3.6,NU,1722731557
303,newnham,-41.3833,147.1333,11.53,82,10,7.72,AU,1722731558
304,punta cardon,11.6581,-70.215,27.5,84,71,13.19,VE,1722731559
305,wuchuan,21.4571,110.7659,30.04,76,1,2.72,CN,1722731560
306,kirensk,57.7853,108.1119,15.86,87,100,0.92,RU,1722731561
307,tampakan,6.4442,124.9264,28.16,73,100,0.71,PH,1722731562
308,laojunmiao,39.8333,97.7333,24.92,14,44,0.91,CN,1722731564
309,borgarnes,64.5383,-21.9206,13.78,70,21,1.37,IS,1722731565
310,al hufuf,25.3646,49.5653,34.19,13,0,3.6,SA,1722731566
311,iquique,-20.2208,-70.1431,16.02,87,30,1.02,CL,1722731311
312,karelichy,53.5653,26.1378,12.38,89,6,2.13,BY,1722731568
313,charlottetown,46.2352,-63.1267,25.16,83,75,6.17,CA,1722731002
314,mil'kovo,55.6078,37.7956,16.3,88,86,2.29,RU,1722731570
315,saint-pierre,-21.3393,55.4781,18.82,59,0,3.6,RE,1722731146
316,lincoln village,39.9548,-83.1307,26.19,90,40,1.54,US,1722731572
317,nuuk,64.1835,-51.7216,2.34,100,100,1.54,GL,1722731573
318,port sudan,19.6175,37.2164,32.26,56,81,3.66,SD,1722731574
319,saipan,15.1355,145.701,30.39,74,75,6.17,MP,1722731575
320,egilsstadir,65.2653,-14.3948,7.95,93,75,3.6,IS,1722731576
321,alta,69.9689,23.2717,14.59,76,64,33.53,NO,1722731380
322,kayenta,36.7278,-110.2546,29.05,27,33,3.83,US,1722731579
323,chichen-itza,20.6667,-88.5667,28.54,67,90,2.58,MX,1722731580
324,trincomalee,8.5711,81.2335,27.07,77,15,6.96,LK,1722731581
325,khost,33.3395,69.9204,24.03,84,86,1.66,AF,1722731583
326,enewetak,11.3474,162.3373,28.32,76,90,1.69,MH,1722731465
327,al bawiti,28.3492,28.8659,27.01,22,5,3.17,EG,1722731585
328,pontes e lacerda,-15.2261,-59.3353,24.75,39,13,1.16,BR,1722731587
329,la'ie,21.6477,-157.9253,30.03,72,45,1.79,US,1722731588
330,tolanaro,-25.0319,46.9987,17.04,94,20,3.09,MG,1722731590
331,pirane,-25.7324,-59.1088,27.23,44,81,5.42,AR,1722731591
332,coahuayana de hidalgo,18.7,-103.6583,28.45,79,100,1.72,MX,1722730809
333,ugoofaaru,5.6667,73.0,28.06,75,92,4.17,MV,1722731593
334,agropoli,40.3469,14.9966,24.29,58,18,2.02,IT,1722731594
335,arraial do cabo,-22.9661,-42.0278,22.48,85,1,10.41,BR,1722731595
336,muncar,-8.4333,114.3333,25.65,81,46,0.82,ID,1722731596
337,sorada,19.75,84.4333,26.4,83,100,1.31,IN,1722731597
338,the pas,53.8251,-101.2541,22.01,40,40,1.54,CA,1722731598
339,levuka,50.1834,-105.4011,25.84,25,94,2.14,CA,1722731599
340,indramayu,-6.3264,108.32,27.17,70,6,4.22,ID,1722731600
341,tchollire,8.4022,14.1698,21.79,98,100,1.86,CM,1722731601
342,polyarnyy,69.1989,33.4478,9.1,93,19,2.82,RU,1722731333
343,paoy paet,13.6561,102.5625,23.79,95,100,1.65,KH,1722731604
344,mandalgovi,45.7625,106.2708,18.04,52,63,4.38,MN,1722731605
345,guasdualito,7.2424,-70.7324,26.0,100,40,0.51,VE,1722731606
346,cockburn town,21.4612,-71.1419,28.39,82,94,8.95,TC,1722731125
347,as sulayyil,20.4607,45.5779,34.14,17,88,4.5,SA,1722731608
348,cafayate,-26.073,-65.9761,11.72,60,100,3.36,AR,1722731609
349,labytnangi,66.6572,66.4183,12.05,86,100,9.85,RU,1722731018
350,urzhar,47.093,81.6294,25.5,37,0,2.88,KZ,1722731611
351,orsa,54.5153,30.4053,14.86,84,100,1.51,BY,1722731612
352,port arthur,38.8,121.2667,29.12,91,100,4.15,CN,1722731613
353,yuzhno-kurilsk,44.0306,145.8556,20.17,88,98,3.14,RU,1722731614
354,callao,-12.0667,-77.15,17.46,77,75,4.12,PE,1722731616
355,kharkhorin,47.1975,102.8238,18.14,55,35,2.36,MN,1722731617
356,linkou,45.3,130.2833,22.29,89,100,1.86,CN,1722731618
357,llallagua,-18.4167,-66.6333,5.63,16,0,0.6,BO,1722731619
358,saint-francois,46.4154,3.9054,17.6,88,0,1.03,FR,1722731620
359,ghazni,33.5536,68.4269,22.12,64,21,1.12,AF,1722731621
360,nova sintra,14.8667,-24.7167,26.5,77,83,2.12,CV,1722731045
361,sharlyk,52.9167,54.75,16.34,83,99,2.51,RU,1722731623
362,vorkuta,67.5,64.0,12.26,69,100,7.15,RU,1722731624
363,itabira,-19.6192,-43.2269,16.04,90,91,1.24,BR,1722731625
364,panaba,21.2833,-88.2667,26.09,84,100,2.99,MX,1722731626
365,laguna,38.421,-121.4238,40.69,19,0,4.12,US,1722731627
366,el calafate,-50.3408,-72.2768,1.4,93,100,0.32,AR,1722731628
367,forbes,-33.3833,148.0167,15.51,55,100,2.44,AU,1722731630
368,arkhangel'sk,64.5401,40.5433,11.06,100,0,1.0,RU,1722731631
369,lerwick,60.1545,-1.1494,11.0,87,2,3.48,GB,1722731632
370,yaren,-0.5472,166.916,29.44,66,11,6.31,NR,1722731036
371,thames,-37.1333,175.5333,11.83,74,100,4.1,NZ,1722731634
372,macusani,-14.0833,-70.4333,1.69,92,22,1.59,PE,1722731635
373,dryden,49.7833,-92.7503,21.16,64,40,1.54,CA,1722731636
374,maintirano,-18.0667,44.0167,19.57,84,23,3.4,MG,1722731637
375,bayganin,48.6947,55.8742,21.84,38,38,2.94,KZ,1722731638
376,kristiansund,63.1115,7.732,16.36,89,100,1.54,NO,1722731639
377,vilhena,-12.7406,-60.1458,25.12,53,0,4.12,BR,1722731640
378,chonchi,-42.6128,-73.8092,7.84,96,100,1.57,CL,1722731642
379,ajasse ipo,8.2333,4.8167,22.58,96,90,3.74,NG,1722731644
380,happy valley-goose bay,53.3168,-60.3315,19.17,77,75,4.63,CA,1722731645
381,lycksele,64.5954,18.6735,14.93,94,100,1.03,SE,1722731646
382,zaozersk,69.4005,32.4476,8.36,96,28,2.77,RU,1722731647
383,nizhneudinsk,54.9076,99.0276,18.36,79,36,1.58,RU,1722731648
384,faaa,-17.55,-149.6,26.98,65,100,7.72,PF,1722731649
385,chibougamau,49.9168,-74.3659,20.79,60,20,4.12,CA,1722731650
386,ciudad lazaro cardenas,17.9583,-102.2,27.04,80,100,3.22,MX,1722731651
387,mweka,-4.85,21.5667,21.12,35,9,1.32,CD,1722731652
388,hadibu,12.65,54.0333,25.37,82,36,10.94,YE,1722731654
389,amungan,15.3652,119.9582,28.44,77,100,1.63,PH,1722731655
390,rawson,-43.3002,-65.1023,10.17,44,5,8.0,AR,1722731645
391,tezu,27.9167,96.1667,23.91,99,100,1.21,IN,1722731657
392,luganville,-15.5333,167.1667,24.08,83,100,4.4,VU,1722731658
393,asekeyevo,53.5742,52.7972,16.33,75,100,3.09,RU,1722731659
394,phan rang-thap cham,11.5667,108.9833,28.91,67,93,0.6,VN,1722731660
395,bhimunipatnam,17.8833,83.4333,26.73,76,93,3.9,IN,1722731661
396,lompoc,34.6391,-120.4579,24.36,72,0,5.66,US,1722731662
397,qamdo,31.1667,97.2333,10.27,71,6,2.2,CN,1722731663
398,bintulu,3.1667,113.0333,27.23,83,20,1.54,MY,1722731664
399,bihar sharif,25.1833,85.5167,27.16,78,100,4.6,IN,1722731665
400,ingraj bazar,25.0,88.15,26.8,88,63,3.16,IN,1722731667
401,brooks,50.5834,-111.8851,31.99,33,53,3.6,CA,1722731668
402,weisswasser,51.5167,14.6333,16.05,81,100,1.81,DE,1722731669
403,kailua-kona,19.6406,-155.9956,30.15,75,0,6.69,US,1722731098
404,bosobolo,4.1833,19.9,20.81,99,100,0.87,CD,1722731671
405,san jose de guanipa,8.8872,-64.1651,26.38,74,83,2.9,VE,1722731672
406,puerto maldonado,-12.6,-69.1833,25.83,58,43,0.5,PE,1722731673
407,port douglas,-16.4833,145.4667,23.22,65,15,6.58,AU,1722731674
408,tual,-5.6667,132.75,25.32,87,19,9.27,ID,1722731675
409,vyritsa,59.4078,30.3481,13.73,97,82,1.24,RU,1722731677
410,miri,4.4148,114.0089,32.08,62,40,0.0,MY,1722731678
411,isna,25.2934,32.554,33.91,20,17,3.8,EG,1722731679
412,atar,20.5169,-13.0499,31.17,51,99,6.33,MR,1722731681
413,aswan,24.0934,32.907,33.06,44,93,4.58,EG,1722731682
414,collie,-33.3667,116.15,9.86,65,1,1.38,AU,1722731684
415,namibe,-15.1961,12.1522,16.52,79,0,4.17,AO,1722731436
416,tharangambadi,11.0319,79.8528,27.17,69,100,5.07,IN,1722731686
417,fortuna,40.5982,-124.1573,16.1,95,100,3.09,US,1722731688
418,sevlievo,43.0258,25.1136,21.01,73,4,3.2,BG,1722731689
419,wiwili,13.6268,-85.8254,24.65,83,100,1.02,NI,1722731690
420,salym,60.0625,71.4789,15.96,88,100,1.53,RU,1722731691
421,al fayyum,29.31,30.8418,26.91,54,0,3.02,EG,1722731692
422,christchurch,-43.5333,172.6333,9.07,76,100,1.03,NZ,1722731151
423,naama,33.2667,-0.3167,27.63,24,5,2.65,DZ,1722731694
424,arar,30.9753,41.0381,29.01,21,0,9.26,SA,1722731695
425,carolina beach,34.0352,-77.8936,29.04,88,13,6.54,US,1722731696
426,sandnessjoen,66.0217,12.6316,17.29,80,9,6.6,NO,1722731698
427,marsh harbour,26.5412,-77.0636,28.6,80,100,8.82,BS,1722731699
428,toamasina,-18.1667,49.3833,15.0,94,20,0.0,MG,1722731701
429,vegreville,53.5001,-112.0518,25.03,48,100,5.14,CA,1722731702
430,songjianghe,42.1859,127.479,28.24,60,30,2.27,CN,1722731703
431,mutuali,-14.8706,37.0044,14.71,66,99,1.03,MZ,1722731704
432,pangkalanbuun,-2.6833,111.6167,27.56,78,32,2.42,ID,1722731705
433,boguchany,58.3814,97.4531,17.41,66,0,1.46,RU,1722731536
434,cestos city,5.46,-9.5828,24.51,87,100,4.5,LR,1722731707
435,todos santos,23.45,-110.2167,35.72,70,35,1.29,MX,1722731709
436,steinbach,50.1667,8.5667,19.51,91,0,2.06,DE,1722731710
437,hilo,19.7297,-155.09,26.64,92,100,4.47,US,1722731711
438,thomasville,35.8826,-80.082,25.05,97,100,6.62,US,1722731712
439,egersund,58.4513,5.9997,16.16,96,100,1.94,NO,1722731623
440,thunder bay,48.4001,-89.3168,21.99,68,75,2.06,CA,1722731571
441,alushta,44.6667,34.4167,23.56,56,51,2.15,UA,1722731715
442,nagqu,31.5,92.0,5.94,77,10,1.2,CN,1722731718
443,usogorsk,63.4106,48.6872,15.97,82,100,3.12,RU,1722731721
444,nevesinje,43.2586,18.1133,15.48,83,0,3.48,BA,1722731722
445,murzuq,25.9155,13.9184,28.63,19,0,3.44,LY,1722731723
446,new haven,41.4001,-72.9329,23.56,90,20,3.09,US,1722731705
447,nkwerre,5.7556,7.1063,21.84,94,100,2.39,NG,1722731725
448,anahuac,27.2333,-100.15,35.88,31,100,4.13,MX,1722731726
449,kolonia town,6.964,158.206,33.0,62,75,2.57,FM,1722731727
450,colonia,50.9333,6.95,19.47,84,40,2.06,DE,1722731601
451,pirallahi,40.4723,50.333,24.08,68,2,3.26,AZ,1722731729
452,sturgis,41.7992,-85.4192,27.14,76,20,2.57,US,1722731730
453,aparecida do taboado,-20.0867,-51.0936,22.65,37,0,3.61,BR,1722731731
454,ploneour-lanvern,47.9,-4.2833,14.16,100,0,1.54,FR,1722731733
455,nizhnesortymskiy,62.4397,71.7603,20.28,69,100,1.13,RU,1722731734
456,akonolinga,3.7667,12.25,19.27,98,100,1.2,CM,1722731735
457,tucupita,9.0622,-62.051,25.47,87,55,2.46,VE,1722731736
458,berezovyy,51.6667,135.7,23.38,46,27,1.39,RU,1722731737
459,newman,37.3138,-121.0208,41.13,16,0,3.39,US,1722731738
460,recani,31.2846,-4.2688,33.26,8,3,1.99,MA,1722731273
461,verkhovazh'ye,60.7472,42.0465,12.15,98,22,1.92,RU,1722731740
462,jiangyou,31.7667,104.7167,26.49,78,98,0.83,CN,1722731741
463,sinop,41.7711,34.8709,19.48,70,0,2.24,TR,1722731320
464,california city,35.1258,-117.9859,39.92,12,0,9.26,US,1722731743
465,codrington,-38.2667,141.9667,10.84,70,100,3.64,AU,1722731436
466,harper,4.375,-7.7169,23.79,84,100,3.4,LR,1722731745
467,vuktyl,63.8567,57.3094,15.25,98,100,2.5,RU,1722731747
468,urangan,-25.3,152.9,19.4,59,100,2.49,AU,1722731748
469,labrador city,52.9463,-66.9114,18.95,79,75,6.69,CA,1722731156
470,wayne,42.2506,-83.2833,29.03,47,20,3.6,US,1722731750
471,balabac,7.9868,117.0645,27.59,79,100,1.17,PH,1722731751
472,pedernales,18.0384,-71.744,28.95,70,14,3.81,DO,1722731752
473,touros,-5.1989,-35.4608,23.13,78,0,5.92,BR,1722731496
474,chandbali,20.7833,86.7667,27.77,82,100,2.24,IN,1722731754
475,kayangel,8.0823,134.7173,28.61,78,100,6.87,PW,1722731755
476,trenggalek,-8.05,111.7167,29.27,82,43,2.24,ID,1722731576
477,sadjoavato,-12.6334,49.349,17.39,69,13,2.19,MG,1722731757
478,prince rupert,54.3161,-130.3201,18.05,77,0,5.14,CA,1722731758
479,shatrovo,56.5167,64.6333,12.94,94,23,2.37,RU,1722731760
480,macae,-22.3708,-41.7869,21.86,88,100,3.09,BR,1722731761
481,benjamin hill,30.1667,-111.1,27.27,52,100,14.06,MX,1722731762
482,bodo,67.28,14.405,18.3,70,75,6.17,NO,1722731697
483,saurimo,-9.6608,20.3916,16.37,31,85,2.14,AO,1722731466
484,taltal,-25.4,-70.4833,14.72,78,0,0.83,CL,1722731765
485,shaffa,10.5067,12.3332,21.96,86,100,2.98,NG,1722731766
486,port hedland,-20.3167,118.5667,18.03,88,2,3.6,AU,1722731767
487,starkville,33.4504,-88.8184,30.93,51,0,1.54,US,1722731768
488,buritizeiro,-17.3511,-44.9622,19.78,68,3,1.56,BR,1722731769
489,kourou,5.1552,-52.6478,25.03,91,42,2.12,GF,1722731729
490,gereida,11.2811,25.1414,23.49,90,100,5.56,SD,1722731772
491,kapa'a,22.0752,-159.319,28.18,72,40,4.63,US,1722731603
492,laramie,41.3114,-105.5911,29.32,15,100,6.83,US,1722731770
493,cortez,37.3489,-108.5859,31.42,22,0,1.54,US,1722731775
494,fort st. john,56.2499,-120.8529,24.94,20,75,0.0,CA,1722731776
495,mossel bay,-34.1831,22.146,8.96,80,100,6.4,ZA,1722731777
496,hobyo,5.3505,48.5268,24.39,86,100,9.93,SO,1722731762
497,buka,40.8108,69.1986,24.27,28,73,2.8,UZ,1722731779
498,port macquarie,-31.4333,152.9167,17.16,61,95,0.45,AU,1722731780
499,yeppoon,-23.1333,150.7333,22.36,75,9,7.02,AU,1722731781
500,marks,51.7111,46.7486,20.49,49,99,2.07,RU,1722731783
501,aykhal,66.0,111.5,17.12,52,100,2.79,RU,1722731779
502,beloyarskiy,63.7119,66.6722,16.46,92,12,1.12,RU,1722731785
503,ondangwa,-17.9167,15.95,14.0,41,0,0.51,NA,1722731786
504,puerto armuelles,8.2833,-82.8667,25.05,86,100,2.68,PA,1722731513
505,ristiina,61.5058,27.2464,12.06,95,14,1.9,FI,1722731788
506,uchaly,54.2996,59.4521,10.22,90,34,1.96,RU,1722731789
507,slave lake,55.2834,-114.769,20.99,56,0,7.2,CA,1722731790
508,ustka,54.5805,16.8619,13.69,91,100,3.04,PL,1722731791
509,burang,30.25,81.1667,10.21,81,91,1.21,CN,1722731792
510,nykobing sjaelland,55.9249,11.6711,19.41,82,100,4.37,DK,1722731793
511,timbiqui,2.7717,-77.6654,23.99,94,84,1.33,CO,1722731794
512,novyy urgal,51.0736,132.5642,24.01,46,100,0.65,RU,1722731796
513,lazaro cardenas,17.9583,-102.2,27.04,80,100,3.22,MX,1722731651
514,bubaque,11.2833,-15.8333,25.78,88,100,8.17,GW,1722731798
515,altamira,-3.2033,-52.2064,24.26,50,6,1.42,BR,1722731799
516,barotac viejo,11.0419,122.8522,27.57,84,100,4.87,PH,1722731800
517,luanda,-8.8368,13.2343,20.0,94,100,0.0,AO,1722731802
518,romanovskaya,47.5426,42.0285,20.88,39,0,3.26,RU,1722731803
519,ak'ordat,15.5486,37.8867,27.42,67,100,1.71,ER,1722731804
520,serowe,-22.3833,26.7167,14.41,41,0,3.23,BW,1722731805
521,adelia maria,-33.6315,-64.021,10.93,42,74,3.28,AR,1722731806
522,novodvinsk,64.4165,40.8122,10.86,98,17,2.1,RU,1722731807
523,pangody,65.85,74.4859,18.18,87,100,4.0,RU,1722731809
524,yeniseysk,58.4497,92.1703,17.31,67,0,2.47,RU,1722731810
525,island harbour,50.724,-1.2758,15.12,79,100,0.89,GB,1722731811
526,nuku'alofa,-21.1333,-175.2,26.19,78,75,4.12,TO,1722731812
527,sihanoukville,10.6093,103.5296,25.97,89,40,2.06,KH,1722731813
528,mili,6.0815,171.735,28.69,73,55,4.38,MH,1722731814
529,pimenta bueno,-11.6725,-61.1936,29.36,33,95,1.49,BR,1722731815
530,kill devil hills,36.0307,-75.676,28.88,82,0,8.23,US,1722731816
531,shache,38.4167,77.2406,28.51,38,100,2.61,CN,1722731817
532,camrose,53.0168,-112.8353,25.74,46,100,5.84,CA,1722731818
533,kigoma,-4.8769,29.6267,23.24,59,87,1.05,TZ,1722731819
534,tralee,52.2704,-9.7026,13.21,83,100,2.17,IE,1722731335
535,robore,-18.3333,-59.75,26.28,36,0,2.01,BO,1722731822
536,morant bay,17.8815,-76.4093,30.79,89,76,3.23,JM,1722731823
537,spring creek,40.7266,-115.5859,32.12,26,70,2.96,US,1722731824
538,ola,59.5833,151.2833,15.78,48,0,2.04,RU,1722731653
539,kununurra,-15.7667,128.7333,24.99,53,0,0.51,AU,1722731688
540,anloga,5.7947,0.8973,23.99,89,19,5.37,GH,1722731827
541,severo-yeniseyskiy,60.3725,93.0408,16.79,58,8,0.89,RU,1722731828
542,calvinia,-31.4707,19.776,5.32,91,97,5.22,ZA,1722731829
543,ngerengere,-6.75,38.1167,18.34,91,5,1.07,TZ,1722731831
544,ampanihy,-24.7,44.75,14.79,94,0,1.72,MG,1722731832
545,sur,22.5667,59.5289,31.16,60,100,2.57,OM,1722731833
546,mongo,12.1844,18.693,24.56,85,100,2.31,TD,1722731834
547,marat,25.0701,45.4615,30.38,17,100,3.34,SA,1722731835
548,lamu,-2.2717,40.902,23.74,82,19,5.94,KE,1722731836
549,baganga,7.5739,126.56,29.04,70,100,1.38,PH,1722731837
550,shillong,25.5689,91.8831,19.25,98,100,1.33,IN,1722731838
551,sola,-13.8833,167.55,25.37,83,100,6.17,VU,1722731817
552,swakopmund,-22.6833,14.5333,13.32,85,0,1.34,NA,1722731840
553,wotho,10.1657,166.0102,28.35,76,2,2.65,MH,1722731841
554,chaumont,48.1167,5.1333,16.87,89,73,1.16,FR,1722731740
555,brokopondo,4.75,-55.1667,27.61,75,100,2.07,SR,1722731843
556,holualoa,19.6228,-155.9522,28.08,75,0,6.69,US,1722731846
557,allen,41.0706,-85.0144,27.22,80,0,2.34,US,1722731847
558,fort bragg,35.139,-79.006,23.91,91,75,2.06,US,1722731498
559,canico,32.6333,-16.85,23.35,79,20,7.72,PT,1722731849
560,kazaure,12.6513,8.4162,23.47,79,85,5.61,NG,1722731850
561,togur,58.3631,82.8265,18.34,88,4,3.51,RU,1722731851
562,danilovka,50.3557,44.1168,18.0,51,95,1.25,RU,1722731852
563,brisas de zicatela,15.8369,-97.0419,26.11,87,100,2.07,MX,1722731645
564,bac lieu,9.285,105.7244,27.96,78,79,3.28,VN,1722731854
565,huangmei,30.1924,116.025,32.69,68,0,1.37,CN,1722731855
566,las khorey,11.1595,48.1967,30.21,62,14,4.21,SO,1722731856
567,valenca do piaui,-6.4075,-41.7456,24.78,40,52,4.37,BR,1722731857
568,onguday,50.75,86.15,17.37,70,39,0.56,RU,1722731859
569,ulsteinvik,62.3432,5.8487,15.55,93,100,1.79,NO,1722731861
570,rusk,31.796,-95.1502,33.29,43,0,0.0,US,1722731862
571,sterling,39.0062,-77.4286,23.73,94,75,4.12,US,1722731435
572,lata,40.1629,-8.3327,17.26,89,1,0.96,PT,1722731864
573,shouguang,36.88,118.7375,31.58,77,24,4.95,CN,1722731865
574,axim,4.8699,-2.2405,22.92,92,14,2.3,GH,1722731866
575,tisul',55.7611,88.3122,19.27,92,100,1.71,RU,1722731867
576,victoria point,-27.5833,153.3,20.87,60,100,2.24,AU,1722731868
577,aripuana,-9.1667,-60.6333,26.46,42,100,1.22,BR,1722731720
578,pisco,-13.7,-76.2167,17.03,82,20,4.63,PE,1722731595
579,monroe,43.1501,-77.6831,24.95,87,44,2.61,US,1722731872
580,quellon,-43.1167,-73.6167,7.32,92,100,2.77,CL,1722731873
581,la dorada,5.4478,-74.6631,25.84,85,100,1.44,CO,1722731874
582,volokolamsk,56.0336,35.9694,12.02,94,85,1.73,RU,1722731875
583,ust'-kulom,61.6864,53.6902,13.43,99,80,1.52,RU,1722731876
584,guantanamo,20.1444,-75.2092,30.76,83,100,1.03,CU,1722731877
585,saint-denis,48.9167,2.3333,20.23,87,75,2.57,FR,1722731878
586,shingu,33.7333,135.9833,30.64,68,7,2.33,JP,1722731810
587,magadan,59.5667,150.8,14.86,52,4,1.01,RU,1722731374
588,borsa,47.6553,24.6633,15.33,98,100,1.76,RO,1722731881
589,rabaul,-4.1967,152.1721,28.53,72,81,5.48,PG,1722731882
590,aizawl,23.7333,92.7167,22.27,98,99,0.67,IN,1722731883
591,tirhanimine,35.2362,-3.9545,22.94,83,40,2.06,MA,1722731885
